[
  {
    "Country": "United States of America",
    "CountryCode": "US",
    "Province": "Wyoming",
    "City": "Teton",
    "CityCode": "56039",
    "Lat": "43.94",
    "Lon": "-110.59",
    "Cases": 0,
    "Status": "confirmed",
    "Date": "2020-01-23T00:00:00Z"
  },
  {
    "Country": "United States of America",
    "CountryCode": "US",
    "Province": "Wyoming",
    "City": "Uinta",
    "CityCode": "56041",
    "Lat": "41.29",
    "Lon": "-110.55",
    "Cases": 0,
    "Status": "confirmed",
    "Date": "2020-01-23T00:00:00Z"
  },
  {
    "Country": "United States of America",
    "CountryCode": "US",
    "Province": "Wyoming",
    "City": "Unassigned",
    "CityCode": "90056",
    "Lat": "0",
    "Lon": "0",
    "Cases": 0,
    "Status": "confirmed",
    "Date": "2020-01-23T00:00:00Z"
  },
  {
    "Country": "United States of America",
    "CountryCode": "US",
    "Province": "Wyoming",
    "City": "Washakie",
    "CityCode": "56043",
    "Lat": "43.9",
    "Lon": "-107.68",
    "Cases": 0,
    "Status": "confirmed",
    "Date": "2020-01-23T00:00:00Z"
  },
  {
    "Country": "United States of America",
    "CountryCode": "US",
    "Province": "Wyoming",
    "City": "Weston",
    "CityCode": "56045",
    "Lat": "43.84",
    "Lon": "-104.57",
    "Cases": 0,
    "Status": "confirmed",
    "Date": "2020-01-23T00:00:00Z"
  },
  {
    "Country": "United States of America",
    "CountryCode": "US",
    "Province": "Wyoming",
    "City": "Lincoln",
    "CityCode": "56023",
    "Lat": "42.26",
    "Lon": "-110.66",
    "Cases": 0,
    "Status": "confirmed",
    "Date": "2020-01-23T00:00:00Z"
  },
  {
    "Country": "United States of America",
    "CountryCode": "US",
    "Province": "Wyoming",
    "City": "Natrona",
    "CityCode": "56025",
    "Lat": "42.96",
    "Lon": "-106.8",
    "Cases": 0,
    "Status": "confirmed",
    "Date": "2020-01-23T00:00:00Z"
  },
  {
    "Country": "United States of America",
    "CountryCode": "US",
    "Province": "Wyoming",
    "City": "Niobrara",
    "CityCode": "56027",
    "Lat": "43.06",
    "Lon": "-104.48",
    "Cases": 0,
    "Status": "confirmed",
    "Date": "2020-01-23T00:00:00Z"
  },
  {
    "Country": "United States of America",
    "CountryCode": "US",
    "Province": "Wyoming",
    "City": "Out of WY",
    "CityCode": "80056",
    "Lat": "0",
    "Lon": "0",
    "Cases": 0,
    "Status": "confirmed",
    "Date": "2020-01-23T00:00:00Z"
  },
  {
    "Country": "United States of America",
    "CountryCode": "US",
    "Province": "Wyoming",
    "City": "Park",
    "CityCode": "56029",
    "Lat": "44.52",
    "Lon": "-109.59",
    "Cases": 0,
    "Status": "confirmed",
    "Date": "2020-01-23T00:00:00Z"
  },
  {
    "Country": "United States of America",
    "CountryCode": "US",
    "Province": "Wyoming",
    "City": "Platte",
    "CityCode": "56031",
    "Lat": "42.13",
    "Lon": "-104.97",
    "Cases": 0,
    "Status": "confirmed",
    "Date": "2020-01-23T00:00:00Z"
  },
  {
    "Country": "United States of America",
    "CountryCode": "US",
    "Province": "Wyoming",
    "City": "Sheridan",
    "CityCode": "56033",
    "Lat": "44.79",
    "Lon": "-106.89",
    "Cases": 0,
    "Status": "confirmed",
    "Date": "2020-01-23T00:00:00Z"
  },
  {
    "Country": "United States of America",
    "CountryCode": "US",
    "Province": "Wyoming",
    "City": "Sublette",
    "CityCode": "56035",
    "Lat": "42.77",
    "Lon": "-109.91",
    "Cases": 0,
    "Status": "confirmed",
    "Date": "2020-01-23T00:00:00Z"
  },
  {
    "Country": "United States of America",
    "CountryCode": "US",
    "Province": "Wyoming",
    "City": "Sweetwater",
    "CityCode": "56037",
    "Lat": "41.66",
    "Lon": "-108.88",
    "Cases": 0,
    "Status": "confirmed",
    "Date": "2020-01-23T00:00:00Z"
  },
  {
    "Country": "United States of America",
    "CountryCode": "US",
    "Province": "Wyoming",
    "City": "Fremont",
    "CityCode": "56013",
    "Lat": "43.04",
    "Lon": "-108.63",
    "Cases": 0,
    "Status": "confirmed",
    "Date": "2020-01-23T00:00:00Z"
  },
  {
    "Country": "United States of America",
    "CountryCode": "US",
    "Province": "Wyoming",
    "City": "Goshen",
    "CityCode": "56015",
    "Lat": "42.09",
    "Lon": "-104.35",
    "Cases": 0,
    "Status": "confirmed",
    "Date": "2020-01-23T00:00:00Z"
  },
  {
    "Country": "United States of America",
    "CountryCode": "US",
    "Province": "Wyoming",
    "City": "Hot Springs",
    "CityCode": "56017",
    "Lat": "43.72",
    "Lon": "-108.44",
    "Cases": 0,
    "Status": "confirmed",
    "Date": "2020-01-23T00:00:00Z"
  },
  {
    "Country": "United States of America",
    "CountryCode": "US",
    "Province": "Wyoming",
    "City": "Johnson",
    "CityCode": "56019",
    "Lat": "44.04",
    "Lon": "-106.58",
    "Cases": 0,
    "Status": "confirmed",
    "Date": "2020-01-23T00:00:00Z"
  },
  {
    "Country": "United States of America",
    "CountryCode": "US",
    "Province": "Wyoming",
    "City": "Laramie",
    "CityCode": "56021",
    "Lat": "41.31",
    "Lon": "-104.69",
    "Cases": 0,
    "Status": "confirmed",
    "Date": "2020-01-23T00:00:00Z"
  },
  {
    "Country": "United States of America",
    "CountryCode": "US",
    "Province": "Wisconsin",
    "City": "Washburn",
    "CityCode": "55129",
    "Lat": "45.9",
    "Lon": "-91.79",
    "Cases": 0,
    "Status": "confirmed",
    "Date": "2020-01-23T00:00:00Z"
  },
  {
    "Country": "United States of America",
    "CountryCode": "US",
    "Province": "Wisconsin",
    "City": "Washington",
    "CityCode": "55131",
    "Lat": "43.37",
    "Lon": "-88.23",
    "Cases": 0,
    "Status": "confirmed",
    "Date": "2020-01-23T00:00:00Z"
  },
  {
    "Country": "United States of America",
    "CountryCode": "US",
    "Province": "Wisconsin",
    "City": "Waukesha",
    "CityCode": "55133",
    "Lat": "43.02",
    "Lon": "-88.3",
    "Cases": 0,
    "Status": "confirmed",
    "Date": "2020-01-23T00:00:00Z"
  },
  {
    "Country": "United States of America",
    "CountryCode": "US",
    "Province": "Wisconsin",
    "City": "Waupaca",
    "CityCode": "55135",
    "Lat": "44.47",
    "Lon": "-88.97",
    "Cases": 0,
    "Status": "confirmed",
    "Date": "2020-01-23T00:00:00Z"
  },
  {
    "Country": "United States of America",
    "CountryCode": "US",
    "Province": "Wisconsin",
    "City": "Richland",
    "CityCode": "55103",
    "Lat": "43.38",
    "Lon": "-90.43",
    "Cases": 0,
    "Status": "confirmed",
    "Date": "2020-01-23T00:00:00Z"
  }
]